{
  "type": "FeatureCollection",
  "features": [
    {
      "type": "Feature",
      "geometry": {
        "type": "Point",
        "coordinates": [
          114.598017,
          9.907354
        ]
      },
      "properties": {
        "name": "Ross Reef",
        "group": "Spratly Islands"
      }
    },
    {
      "type": "Feature",
      "geometry": {
        "type": "Point",
        "coordinates": [
          114.533078,
          9.890592
        ]
      },
      "properties": {
        "name": "Bamford Reef",
        "group": "Spratly Islands"
      }
    },
    {
      "type": "Feature",
      "geometry": {
        "type": "Point",
        "coordinates": [
          114.511137,
          9.868625
        ]
      },
      "properties": {
        "name": "Tetley Reef",
        "group": "Spratly Islands"
      }
    },
    {
      "type": "Feature",
      "geometry": {
        "type": "Point",
        "coordinates": [
          114.28476,
          11.052675
        ]
      },
      "properties": {
        "name": "Thitu Island",
        "group": "Spratly Islands"
      }
    },
    {
      "type": "Feature",
      "geometry": {
        "type": "Point",
        "coordinates": [
          115.023695,
          11.081379
        ]
      },
      "properties": {
        "name": "West York Island",
        "group": "Spratly Islands"
      }
    },
    {
      "type": "Feature",
      "geometry": {
        "type": "Point",
        "coordinates": [
          114.355193,
          11.452763
        ]
      },
      "properties": {
        "name": "Northeast Cay",
        "group": "Spratly Islands"
      }
    },
    {
      "type": "Feature",
      "geometry": {
        "type": "Point",
        "coordinates": [
          114.331756,
          11.428857
        ]
      },
      "properties": {
        "name": "Southwest Cay",
        "group": "Spratly Islands"
      }
    },
    {
      "type": "Feature",
      "geometry": {
        "type": "Point",
        "coordinates": [
          114.329664,
          9.884265
        ]
      },
      "properties": {
        "name": "Sin Cowe Island",
        "group": "Spratly Islands"
      }
    },
    {
      "type": "Feature",
      "geometry": {
        "type": "Point",
        "coordinates": [
          115.802892,
          10.732512
        ]
      },
      "properties": {
        "name": "Nanshan Island",
        "group": "Spratly Islands"
      }
    },
    {
      "type": "Feature",
      "geometry": {
        "type": "Point",
        "coordinates": [
          114.480089,
          10.374747
        ]
      },
      "properties": {
        "name": "Sand Cay",
        "group": "Spratly Islands"
      }
    },
    {
      "type": "Feature",
      "geometry": {
        "type": "Point",
        "coordinates": [
          114.423652,
          10.667865
        ]
      },
      "properties": {
        "name": "Loaita Island",
        "group": "Spratly Islands"
      }
    },
    {
      "type": "Feature",
      "geometry": {
        "type": "Point",
        "coordinates": [
          114.360863,
          10.180931
        ]
      },
      "properties": {
        "name": "Namyit Island",
        "group": "Spratly Islands"
      }
    },
    {
      "type": "Feature",
      "geometry": {
        "type": "Point",
        "coordinates": [
          114.563867,
          9.902515
        ]
      },
      "properties": {
        "name": "Grierson Reef",
        "group": "Spratly Islands"
      }
    },
    {
      "type": "Feature",
      "geometry": {
        "type": "Point",
        "coordinates": [
          112.256391,
          8.867227
        ]
      },
      "properties": {
        "name": "West London Reef",
        "group": "Spratly Islands"
      }
    },
    {
      "type": "Feature",
      "geometry": {
        "type": "Point",
        "coordinates": [
          112.349957,
          8.931113
        ]
      },
      "properties": {
        "name": "Central London Reef",
        "group": "Spratly Islands"
      }
    },
    {
      "type": "Feature",
      "geometry": {
        "type": "Point",
        "coordinates": [
          115.822322,
          10.816347
        ]
      },
      "properties": {
        "name": "Flat Island",
        "group": "Spratly Islands"
      }
    },
    {
      "type": "Feature",
      "geometry": {
        "type": "Point",
        "coordinates": [
          114.3525,
          10.72861
        ]
      },
      "properties": {
        "name": "Loaita Cay",
        "group": "Spratly Islands"
      }
    },
    {
      "type": "Feature",
      "geometry": {
        "type": "Point",
        "coordinates": [
          114.534545,
          10.712109
        ]
      },
      "properties": {
        "name": "Lankiam Cay",
        "group": "Spratly Islands"
      }
    },
    {
      "type": "Feature",
      "geometry": {
        "type": "Point",
        "coordinates": [
          115.519466,
          9.908632
        ]
      },
      "properties": {
        "name": "Mischief Reef",
        "group": "Spratly Islands"
      }
    },
    {
      "type": "Feature",
      "geometry": {
        "type": "Point",
        "coordinates": [
          114.085153,
          10.925259
        ]
      },
      "properties": {
        "name": "Subi Reef",
        "group": "Spratly Islands"
      }
    },
    {
      "type": "Feature",
      "geometry": {
        "type": "Point",
        "coordinates": [
          112.888728,
          9.546903
        ]
      },
      "properties": {
        "name": "Fiery Cross Reef",
        "group": "Spratly Islands"
      }
    },
    {
      "type": "Feature",
      "geometry": {
        "type": "Point",
        "coordinates": [
          112.83829,
          8.862584
        ]
      },
      "properties": {
        "name": "Cuarteron Reef",
        "group": "Spratly Islands"
      }
    },
    {
      "type": "Feature",
      "geometry": {
        "type": "Point",
        "coordinates": [
          114.225557,
          10.207302
        ]
      },
      "properties": {
        "name": "Gaven Reefs",
        "group": "Spratly Islands"
      }
    },
    {
      "type": "Feature",
      "geometry": {
        "type": "Point",
        "coordinates": [
          114.282957,
          9.719051
        ]
      },
      "properties": {
        "name": "Johnson South Reef",
        "group": "Spratly Islands"
      }
    },
    {
      "type": "Feature",
      "geometry": {
        "type": "Point",
        "coordinates": [
          114.496438,
          9.911082
        ]
      },
      "properties": {
        "name": "Hughes Reef",
        "group": "Spratly Islands"
      }
    },
    {
      "type": "Feature",
      "geometry": {
        "type": "Point",
        "coordinates": [
          113.698627,
          8.970201
        ]
      },
      "properties": {
        "name": "Pearson Reef",
        "group": "Spratly Islands"
      }
    },
    {
      "type": "Feature",
      "geometry": {
        "type": "Point",
        "coordinates": [
          114.188021,
          8.695557
        ]
      },
      "properties": {
        "name": "Cornwallis South Reef",
        "group": "Spratly Islands"
      }
    },
    {
      "type": "Feature",
      "geometry": {
        "type": "Point",
        "coordinates": [
          114.649814,
          11.41284
        ]
      },
      "properties": {
        "name": "Trident Shoal",
        "group": "Spratly Islands"
      }
    },
    {
      "type": "Feature",
      "geometry": {
        "type": "Point",
        "coordinates": [
          114.603119,
          11.358894
        ]
      },
      "properties": {
        "name": "Lys Shoal",
        "group": "Spratly Islands"
      }
    },
    {
      "type": "Feature",
      "geometry": {
        "type": "Point",
        "coordinates": [
          114.371499,
          11.087844
        ]
      },
      "properties": {
        "name": "Thitu Reef",
        "group": "Spratly Islands"
      }
    },
    {
      "type": "Feature",
      "geometry": {
        "type": "Point",
        "coordinates": [
          114.21802,
          11.059213
        ]
      },
      "properties": {
        "name": "Sandy Cay (Spratly Islands)",
        "group": "Spratly Islands"
      }
    },
    {
      "type": "Feature",
      "geometry": {
        "type": "Point",
        "coordinates": [
          114.327772,
          10.704618
        ]
      },
      "properties": {
        "name": "Loaita Nan",
        "group": "Spratly Islands"
      }
    },
    {
      "type": "Feature",
      "geometry": {
        "type": "Point",
        "coordinates": [
          114.795236,
          11.148737
        ]
      },
      "properties": {
        "name": "Menzies Reef",
        "group": "Spratly Islands"
      }
    },
    {
      "type": "Feature",
      "geometry": {
        "type": "Point",
        "coordinates": [
          114.917008,
          10.876456
        ]
      },
      "properties": {
        "name": "Irving Reef",
        "group": "Spratly Islands"
      }
    },
    {
      "type": "Feature",
      "geometry": {
        "type": "Point",
        "coordinates": [
          113.63883,
          10.233
        ]
      },
      "properties": {
        "name": "Western Reef",
        "group": "Spratly Islands"
      }
    },
    {
      "type": "Feature",
      "geometry": {
        "type": "Point",
        "coordinates": [
          113.854423,
          10.022597
        ]
      },
      "properties": {
        "name": "Discovery Great Reef",
        "group": "Spratly Islands"
      }
    },
    {
      "type": "Feature",
      "geometry": {
        "type": "Point",
        "coordinates": [
          114.584391,
          10.406906
        ]
      },
      "properties": {
        "name": "Petley Reef",
        "group": "Spratly Islands"
      }
    },
    {
      "type": "Feature",
      "geometry": {
        "type": "Point",
        "coordinates": [
          114.365884,
          10.376879
        ]
      },
      "properties": {
        "name": "Taiping Island",
        "group": "Spratly Islands"
      }
    },
    {
      "type": "Feature",
      "geometry": {
        "type": "Point",
        "coordinates": [
          114.41361,
          10.38611
        ]
      },
      "properties": {
        "name": "Zhongzhou Reef",
        "group": "Spratly Islands"
      }
    },
    {
      "type": "Feature",
      "geometry": {
        "type": "Point",
        "coordinates": [
          114.392747,
          11.458989
        ]
      },
      "properties": {
        "name": "North Reef (Spratly Islands)",
        "group": "Spratly Islands"
      }
    },
    {
      "type": "Feature",
      "geometry": {
        "type": "Point",
        "coordinates": [
          114.305011,
          11.38701
        ]
      },
      "properties": {
        "name": "South Reef",
        "group": "Spratly Islands"
      }
    },
    {
      "type": "Feature",
      "geometry": {
        "type": "Point",
        "coordinates": [
          114.256352,
          9.771758
        ]
      },
      "properties": {
        "name": "Collins Reef",
        "group": "Spratly Islands"
      }
    },
    {
      "type": "Feature",
      "geometry": {
        "type": "Point",
        "coordinates": [
          114.370691,
          9.778792
        ]
      },
      "properties": {
        "name": "Lansdowne Reef",
        "group": "Spratly Islands"
      }
    },
    {
      "type": "Feature",
      "geometry": {
        "type": "Point",
        "coordinates": [
          111.720064,
          7.959299
        ]
      },
      "properties": {
        "name": "Bombay Castle",
        "group": "Spratly Islands"
      }
    },
    {
      "type": "Feature",
      "geometry": {
        "type": "Point",
        "coordinates": [
          113.831043,
          7.37513
        ]
      },
      "properties": {
        "name": "Swallow Reef",
        "group": "Spratly Islands"
      }
    },
    {
      "type": "Feature",
      "geometry": {
        "type": "Point",
        "coordinates": [
          113.93904,
          7.619815
        ]
      },
      "properties": {
        "name": "Ardasier Reef",
        "group": "Spratly Islands"
      }
    },
    {
      "type": "Feature",
      "geometry": {
        "type": "Point",
        "coordinates": [
          113.917826,
          7.97312
        ]
      },
      "properties": {
        "name": "Mariveles Reef",
        "group": "Spratly Islands"
      }
    },
    {
      "type": "Feature",
      "geometry": {
        "type": "Point",
        "coordinates": [
          113.799743,
          7.621232
        ]
      },
      "properties": {
        "name": "Dallas Reef",
        "group": "Spratly Islands"
      }
    },
    {
      "type": "Feature",
      "geometry": {
        "type": "Point",
        "coordinates": [
          114.133429,
          8.107966
        ]
      },
      "properties": {
        "name": "Erica Reef",
        "group": "Spratly Islands"
      }
    },
    {
      "type": "Feature",
      "geometry": {
        "type": "Point",
        "coordinates": [
          114.57919,
          8.127124
        ]
      },
      "properties": {
        "name": "Investigator Shoal",
        "group": "Spratly Islands"
      }
    },
    {
      "type": "Feature",
      "geometry": {
        "type": "Point",
        "coordinates": [
          113.241926,
          6.333085
        ]
      },
      "properties": {
        "name": "Louisa Reef",
        "group": "Spratly Islands"
      }
    },
    {
      "type": "Feature",
      "geometry": {
        "type": "Point",
        "coordinates": [
          112.526159,
          5.902455
        ]
      },
      "properties": {
        "name": "Aitken Reef",
        "group": "Spratly Islands"
      }
    },
    {
      "type": "Feature",
      "geometry": {
        "type": "Point",
        "coordinates": [
          115.443944,
          9.36427
        ]
      },
      "properties": {
        "name": "Alicia Annie Reef",
        "group": "Spratly Islands"
      }
    },
    {
      "type": "Feature",
      "geometry": {
        "type": "Point",
        "coordinates": [
          116.92714,
          9.45762
        ]
      },
      "properties": {
        "name": "Bombay Shoal",
        "group": "Spratly Islands"
      }
    },
    {
      "type": "Feature",
      "geometry": {
        "type": "Point",
        "coordinates": [
          116.167,
          9.6
        ]
      },
      "properties": {
        "name": "Boxall Reef",
        "group": "Spratly Islands"
      }
    },
    {
      "type": "Feature",
      "geometry": {
        "type": "Point",
        "coordinates": [
          112.5375,
          5.80417
        ]
      },
      "properties": {
        "name": "Buck Reef",
        "group": "Spratly Islands"
      }
    },
    {
      "type": "Feature",
      "geometry": {
        "type": "Point",
        "coordinates": [
          112.57917,
          5.07778
        ]
      },
      "properties": {
        "name": "Connell Reef",
        "group": "Spratly Islands"
      }
    },
    {
      "type": "Feature",
      "geometry": {
        "type": "Point",
        "coordinates": [
          114.39421,
          9.893949
        ]
      },
      "properties": {
        "name": "Edmund Reef",
        "group": "Spratly Islands"
      }
    },
    {
      "type": "Feature",
      "geometry": {
        "type": "Point",
        "coordinates": [
          114.7,
          10.35
        ]
      },
      "properties": {
        "name": "Eldad Reef",
        "group": "Spratly Islands"
      }
    },
    {
      "type": "Feature",
      "geometry": {
        "type": "Point",
        "coordinates": [
          114.591443,
          9.977008
        ]
      },
      "properties": {
        "name": "Empire Reef",
        "group": "Spratly Islands"
      }
    },
    {
      "type": "Feature",
      "geometry": {
        "type": "Point",
        "coordinates": [
          115.942233,
          9.329655
        ]
      },
      "properties": {
        "name": "First Thomas Shoal",
        "group": "Spratly Islands"
      }
    },
    {
      "type": "Feature",
      "geometry": {
        "type": "Point",
        "coordinates": [
          112.52861,
          5.955
        ]
      },
      "properties": {
        "name": "Friendship Shoal",
        "group": "Spratly Islands"
      }
    },
    {
      "type": "Feature",
      "geometry": {
        "type": "Point",
        "coordinates": [
          116.276355,
          8.906146
        ]
      },
      "properties": {
        "name": "Half Moon Shoal",
        "group": "Spratly Islands"
      }
    },
    {
      "type": "Feature",
      "geometry": {
        "type": "Point",
        "coordinates": [
          114.522536,
          9.934163
        ]
      },
      "properties": {
        "name": "Hallet Reef",
        "group": "Spratly Islands"
      }
    },
    {
      "type": "Feature",
      "geometry": {
        "type": "Point",
        "coordinates": [
          112.446238,
          5.787535
        ]
      },
      "properties": {
        "name": "Hardie Reef",
        "group": "Spratly Islands"
      }
    },
    {
      "type": "Feature",
      "geometry": {
        "type": "Point",
        "coordinates": [
          116.144545,
          10.121129
        ]
      },
      "properties": {
        "name": "Hardy Reef /Hubo Reef",
        "group": "Spratly Islands"
      }
    },
    {
      "type": "Feature",
      "geometry": {
        "type": "Point",
        "coordinates": [
          112.626194,
          5.368559
        ]
      },
      "properties": {
        "name": "Hayes Reef",
        "group": "Spratly Islands"
      }
    },
    {
      "type": "Feature",
      "geometry": {
        "type": "Point",
        "coordinates": [
          112.60417,
          4.97083
        ]
      },
      "properties": {
        "name": "Herald Reef (Spratly Islands)",
        "group": "Spratly Islands"
      }
    },
    {
      "type": "Feature",
      "geometry": {
        "type": "Point",
        "coordinates": [
          114.4003,
          9.796384
        ]
      },
      "properties": {
        "name": "Higgens Reef",
        "group": "Spratly Islands"
      }
    },
    {
      "type": "Feature",
      "geometry": {
        "type": "Point",
        "coordinates": [
          114.563824,
          9.963851
        ]
      },
      "properties": {
        "name": "Holiday Reef",
        "group": "Spratly Islands"
      }
    },
    {
      "type": "Feature",
      "geometry": {
        "type": "Point",
        "coordinates": [
          116.090241,
          10.809375
        ]
      },
      "properties": {
        "name": "Hopkins Reef",
        "group": "Spratly Islands"
      }
    },
    {
      "type": "Feature",
      "geometry": {
        "type": "Point",
        "coordinates": [
          115.367742,
          10.251478
        ]
      },
      "properties": {
        "name": "Hopps Reef",
        "group": "Spratly Islands"
      }
    },
    {
      "type": "Feature",
      "geometry": {
        "type": "Point",
        "coordinates": [
          116.461476,
          9.176462
        ]
      },
      "properties": {
        "name": "Investigator Northeast Shoal",
        "group": "Spratly Islands"
      }
    },
    {
      "type": "Feature",
      "geometry": {
        "type": "Point",
        "coordinates": [
          116.175,
          10.625
        ]
      },
      "properties": {
        "name": "Iroquois Reef",
        "group": "Spratly Islands"
      }
    },
    {
      "type": "Feature",
      "geometry": {
        "type": "Point",
        "coordinates": [
          114.459447,
          9.832049
        ]
      },
      "properties": {
        "name": "Jones Reef /Zhangxi Jiao",
        "group": "Spratly Islands"
      }
    },
    {
      "type": "Feature",
      "geometry": {
        "type": "Point",
        "coordinates": [
          115.29965,
          10.19134
        ]
      },
      "properties": {
        "name": "Livock Reef",
        "group": "Spratly Islands"
      }
    },
    {
      "type": "Feature",
      "geometry": {
        "type": "Point",
        "coordinates": [
          114.281798,
          9.852093
        ]
      },
      "properties": {
        "name": "Loveless Reef",
        "group": "Spratly Islands"
      }
    },
    {
      "type": "Feature",
      "geometry": {
        "type": "Point",
        "coordinates": [
          113.667644,
          9.20807
        ]
      },
      "properties": {
        "name": "Maralie Reef /Bittern Reef",
        "group": "Spratly Islands"
      }
    },
    {
      "type": "Feature",
      "geometry": {
        "type": "Point",
        "coordinates": [
          114.465584,
          9.903572
        ]
      },
      "properties": {
        "name": "McKennan Reef /Kennan Reef",
        "group": "Spratly Islands"
      }
    },
    {
      "type": "Feature",
      "geometry": {
        "type": "Point",
        "coordinates": [
          112.66444,
          5.05
        ]
      },
      "properties": {
        "name": "Richmond Reef",
        "group": "Spratly Islands"
      }
    },
    {
      "type": "Feature",
      "geometry": {
        "type": "Point",
        "coordinates": [
          116.664181,
          9.045452
        ]
      },
      "properties": {
        "name": "Royal Captain Shoal",
        "group": "Spratly Islands"
      }
    },
    {
      "type": "Feature",
      "geometry": {
        "type": "Point",
        "coordinates": [
          113.579996,
          6.941395
        ]
      },
      "properties": {
        "name": "Royal Charlotte Reef",
        "group": "Spratly Islands"
      }
    },
    {
      "type": "Feature",
      "geometry": {
        "type": "Point",
        "coordinates": [
          116.56863,
          9.735038
        ]
      },
      "properties": {
        "name": "Sabina Shoal",
        "group": "Spratly Islands"
      }
    },
    {
      "type": "Feature",
      "geometry": {
        "type": "Point",
        "coordinates": [
          112.583,
          5.5
        ]
      },
      "properties": {
        "name": "Seahorse Breakers",
        "group": "Spratly Islands"
      }
    },
    {
      "type": "Feature",
      "geometry": {
        "type": "Point",
        "coordinates": [
          112.47917,
          5.02444
        ]
      },
      "properties": {
        "name": "Stigant Reef",
        "group": "Spratly Islands"
      }
    },
    {
      "type": "Feature",
      "geometry": {
        "type": "Point",
        "coordinates": [
          116.92991,
          10.551877
        ]
      },
      "properties": {
        "name": "Tagpi",
        "group": "Spratly Islands"
      }
    },
    {
      "type": "Feature",
      "geometry": {
        "type": "Point",
        "coordinates": [
          112.340467,
          16.835649
        ]
      },
      "properties": {
        "name": "Woody Island",
        "group": "Paracel Islands"
      }
    },
    {
      "type": "Feature",
      "geometry": {
        "type": "Point",
        "coordinates": [
          112.21194,
          16.9775
        ]
      },
      "properties": {
        "name": "West Sand",
        "group": "Paracel Islands"
      }
    },
    {
      "type": "Feature",
      "geometry": {
        "type": "Point",
        "coordinates": [
          112.27111,
          16.98
        ]
      },
      "properties": {
        "name": "Tree Island",
        "group": "Paracel Islands"
      }
    },
    {
      "type": "Feature",
      "geometry": {
        "type": "Point",
        "coordinates": [
          112.30944,
          16.96389
        ]
      },
      "properties": {
        "name": "North Island",
        "group": "Paracel Islands"
      }
    },
    {
      "type": "Feature",
      "geometry": {
        "type": "Point",
        "coordinates": [
          112.32444,
          16.955
        ]
      },
      "properties": {
        "name": "Middle Island",
        "group": "Paracel Islands"
      }
    },
    {
      "type": "Feature",
      "geometry": {
        "type": "Point",
        "coordinates": [
          112.33444,
          16.94639
        ]
      },
      "properties": {
        "name": "South Island",
        "group": "Paracel Islands"
      }
    },
    {
      "type": "Feature",
      "geometry": {
        "type": "Point",
        "coordinates": [
          112.34167,
          16.93778
        ]
      },
      "properties": {
        "name": "North Sand",
        "group": "Paracel Islands"
      }
    },
    {
      "type": "Feature",
      "geometry": {
        "type": "Point",
        "coordinates": [
          112.34361,
          16.93417
        ]
      },
      "properties": {
        "name": "Middle Sand",
        "group": "Paracel Islands"
      }
    },
    {
      "type": "Feature",
      "geometry": {
        "type": "Point",
        "coordinates": [
          112.34583,
          16.92917
        ]
      },
      "properties": {
        "name": "South Sand",
        "group": "Paracel Islands"
      }
    },
    {
      "type": "Feature",
      "geometry": {
        "type": "Point",
        "coordinates": [
          111.50833,
          16.44778
        ]
      },
      "properties": {
        "name": "Money Island",
        "group": "Paracel Islands"
      }
    },
    {
      "type": "Feature",
      "geometry": {
        "type": "Point",
        "coordinates": [
          111.589754,
          16.461775
        ]
      },
      "properties": {
        "name": "Antelope Reef",
        "group": "Paracel Islands"
      }
    },
    {
      "type": "Feature",
      "geometry": {
        "type": "Point",
        "coordinates": [
          111.58528,
          16.50556
        ]
      },
      "properties": {
        "name": "Robert Island",
        "group": "Paracel Islands"
      }
    },
    {
      "type": "Feature",
      "geometry": {
        "type": "Point",
        "coordinates": [
          111.60694,
          16.53389
        ]
      },
      "properties": {
        "name": "Pattle Island",
        "group": "Paracel Islands"
      }
    },
    {
      "type": "Feature",
      "geometry": {
        "type": "Point",
        "coordinates": [
          111.67333,
          16.57472
        ]
      },
      "properties": {
        "name": "Quanfu Dao",
        "group": "Paracel Islands"
      }
    },
    {
      "type": "Feature",
      "geometry": {
        "type": "Point",
        "coordinates": [
          111.70417,
          16.57917
        ]
      },
      "properties": {
        "name": "Lesser Silver Islet",
        "group": "Paracel Islands"
      }
    },
    {
      "type": "Feature",
      "geometry": {
        "type": "Point",
        "coordinates": [
          111.767,
          16.5
        ]
      },
      "properties": {
        "name": "Stone Islet",
        "group": "Paracel Islands"
      }
    },
    {
      "type": "Feature",
      "geometry": {
        "type": "Point",
        "coordinates": [
          111.74167,
          16.46389
        ]
      },
      "properties": {
        "name": "Drummond Island",
        "group": "Paracel Islands"
      }
    },
    {
      "type": "Feature",
      "geometry": {
        "type": "Point",
        "coordinates": [
          111.704475,
          16.450855
        ]
      },
      "properties": {
        "name": "Duncan Island",
        "group": "Paracel Islands"
      }
    },
    {
      "type": "Feature",
      "geometry": {
        "type": "Point",
        "coordinates": [
          112.642361,
          16.576806
        ]
      },
      "properties": {
        "name": "Pyramid Rock",
        "group": "Paracel Islands"
      }
    },
    {
      "type": "Feature",
      "geometry": {
        "type": "Point",
        "coordinates": [
          112.729352,
          16.667391
        ]
      },
      "properties": {
        "name": "Lincoln Island",
        "group": "Paracel Islands"
      }
    },
    {
      "type": "Feature",
      "geometry": {
        "type": "Point",
        "coordinates": [
          111.474423,
          17.079598
        ]
      },
      "properties": {
        "name": "North Reef",
        "group": "Paracel Islands"
      }
    },
    {
      "type": "Feature",
      "geometry": {
        "type": "Point",
        "coordinates": [
          111.206609,
          15.785746
        ]
      },
      "properties": {
        "name": "Triton Island",
        "group": "Paracel Islands"
      }
    },
    {
      "type": "Feature",
      "geometry": {
        "type": "Point",
        "coordinates": [
          112.539776,
          16.051813
        ]
      },
      "properties": {
        "name": "Bombay Reef",
        "group": "Paracel Islands"
      }
    },
    {
      "type": "Feature",
      "geometry": {
        "type": "Point",
        "coordinates": [
          111.778797,
          16.242754
        ]
      },
      "properties": {
        "name": "Discovery Reef",
        "group": "Paracel Islands"
      }
    },
    {
      "type": "Feature",
      "geometry": {
        "type": "Point",
        "coordinates": [
          111.776533,
          16.050996
        ]
      },
      "properties": {
        "name": "Passu Keah",
        "group": "Paracel Islands"
      }
    },
    {
      "type": "Feature",
      "geometry": {
        "type": "Point",
        "coordinates": [
          112.001444,
          16.340771
        ]
      },
      "properties": {
        "name": "Vuladdore Reef",
        "group": "Paracel Islands"
      }
    },
    {
      "type": "Feature",
      "geometry": {
        "type": "Point",
        "coordinates": [
          117.735134,
          15.196964
        ]
      },
      "properties": {
        "name": "Scarborough Shoal",
        "group": "Scarborough Shoal"
      }
    },
    {
      "type": "Feature",
      "geometry": {
        "type": "Point",
        "coordinates": [
          111.67627,
          8.665628
        ]
      },
      "properties": {
        "name": "Ladd Reef",
        "occupier": "Vietnam",
        "amti_url": "https://amti.csis.org/ladd-reef/"
      }
    },
    {
      "type": "Feature",
      "geometry": {
        "type": "Point",
        "coordinates": [
          114.654892,
          8.855703
        ]
      },
      "properties": {
        "name": "Tennent Reef",
        "occupier": "Vietnam",
        "amti_url": "https://amti.csis.org/tennent-reef/"
      }
    },
    {
      "type": "Feature",
      "geometry": {
        "type": "Point",
        "coordinates": [
          111.919167,
          8.644
        ]
      },
      "properties": {
        "name": "Spratly Island",
        "group": "Spratly Islands"
      }
    },
    {
      "type": "Feature",
      "geometry": {
        "type": "Point",
        "coordinates": [
          115.867289,
          9.787202
        ]
      },
      "properties": {
        "name": "Second Thomas Shoal",
        "group": "Spratly Islands"
      }
    },
    {
      "type": "Feature",
      "geometry": {
        "type": "Point",
        "coordinates": [
          114.650371,
          9.987021
        ]
      },
      "properties": {
        "name": "Whitsun Reef",
        "group": "Spratly Islands"
      }
    },
    {
      "type": "Feature",
      "geometry": {
        "type": "Point",
        "coordinates": [
          113.320998,
          8.201202
        ]
      },
      "properties": {
        "name": "Barque Canada Reef",
        "group": "Spratly Islands"
      }
    },
    {
      "type": "Feature",
      "geometry": {
        "type": "Point",
        "coordinates": [
          113.993711,
          8.8247
        ]
      },
      "properties": {
        "name": "Alison Reef",
        "group": "Spratly Islands"
      }
    },
    {
      "type": "Feature",
      "geometry": {
        "type": "Point",
        "coordinates": [
          112.652932,
          8.823053
        ]
      },
      "properties": {
        "name": "East Reef",
        "group": "Spratly Islands"
      }
    },
    {
      "type": "Feature",
      "geometry": {
        "type": "Point",
        "coordinates": [
          115.235809,
          8.358479
        ]
      },
      "properties": {
        "name": "Commodore Reef",
        "group": "Spratly Islands"
      }
    }
  ]
}